[
    {
        "id": "H000001",
        "name": "서울대학병원",
        "location": "서울",
        "location_code": "110000",
        "hospital_code": "H001",
        "phone": "02-101-2345",
        "type": "대학병원",
        "rating": 3,
        "latitude": 37.5665,
        "longitude": 126.978,
        "address": "서울특별시 종로구 대학로 1",
        "contact": "+82-2-101-2345",
        "specialties": ["내과", "외과", "정신건강의학과", "소아과", "안과", "이비인후과", "산부인과", "피부과", "신경외과"],
        "hours": "00:00-24:00",
        "website": "http://seoul-univ-hospital.kr",
        "weekend_availability": "Y"
    },
    {
        "id": "H000002",
        "name": "서울시립병원",
        "location": "서울",
        "location_code": "110000",
        "hospital_code": "H002",
        "phone": "02-202-3456",
        "type": "종합병원",
        "rating": 2,
        "latitude": 37.5678,
        "longitude": 126.990,
        "address": "서울특별시 중구 시립로 2",
        "contact": "+82-2-202-3456",
        "specialties": ["내과", "외과", "소아청소년과", "정형외과", "치과"],
        "hours": "00:00-24:00",
        "website": "http://seoul-city-hospital.kr",
        "weekend_availability": "Y"
    },
    {
        "id": "H000003",
        "name": "서울동부병원",
        "location": "서울",
        "location_code": "110000",
        "hospital_code": "H003",
        "phone": "02-303-4567",
        "type": "1차 병원",
        "rating": 1,
        "latitude": 37.5700,
        "longitude": 126.982,
        "address": "서울특별시 강동구 동부로 3",
        "contact": "+82-2-303-4567",
        "specialties": ["안과", "치과", "피부과"],
        "hours": "09:00-18:00",
        "website": "http://seoul-east-hospital.kr",
        "weekend_availability": "N"
    },
    {
        "id": "H000004",
        "name": "부산대학병원",
        "location": "부산",
        "location_code": "210000",
        "hospital_code": "H004",
        "phone": "051-401-2345",
        "type": "대학병원",
        "rating": 3,
        "latitude": 35.1796,
        "longitude": 129.0756,
        "address": "부산광역시 서구 대학로 1",
        "contact": "+82-51-401-2345",
        "specialties": ["내과", "외과", "정신건강의학과", "신경외과", "소아과", "안과", "산부인과"],
        "hours": "00:00-24:00",
        "website": "http://pusan-univ-hospital.kr",
        "weekend_availability": "Y"
    },
    {
        "id": "H000005",
        "name": "부산시립병원",
        "location": "부산",
        "location_code": "210000",
        "hospital_code": "H005",
        "phone": "051-402-3456",
        "type": "종합병원",
        "rating": 2,
        "latitude": 35.1589,
        "longitude": 129.055,
        "address": "부산광역시 남구 시립로 2",
        "contact": "+82-51-402-3456",
        "specialties": ["내과", "외과", "소아청소년과", "정형외과", "치과"],
        "hours": "00:00-24:00",
        "website": "http://pusan-city-hospital.kr",
        "weekend_availability": "Y"
    },
    {
        "id": "H000006",
        "name": "부산동부병원",
        "location": "부산",
        "location_code": "210000",
        "hospital_code": "H006",
        "phone": "051-403-4567",
        "type": "1차 병원",
        "rating": 1,
        "latitude": 35.1589,
        "longitude": 129.0444,
        "address": "부산광역시 동구 동부로 3",
        "contact": "+82-51-403-4567",
        "specialties": ["내과", "치과"],
        "hours": "09:00-18:00",
        "website": "http://pusan-east-hospital.kr",
        "weekend_availability": "N"
    },
    {
        "id": "H000007",
        "name": "인천대학병원",
        "location": "인천",
        "location_code": "220000",
        "hospital_code": "H007",
        "phone": "032-201-2345",
        "type": "대학병원",
        "rating": 3,
        "latitude": 37.4563,
        "longitude": 126.7052,
        "address": "인천광역시 중구 대학로 4",
        "contact": "+82-32-201-2345",
        "specialties": ["내과", "외과", "정신건강의학과", "신경외과", "소아과", "안과", "산부인과", "피부과"],
        "hours": "00:00-24:00",
        "website": "http://incheon-univ-hospital.kr",
        "weekend_availability": "Y"
    },
    {
        "id": "H000008",
        "name": "인천시립병원",
        "location": "인천",
        "location_code": "220000",
        "hospital_code": "H008",
        "phone": "032-202-3456",
        "type": "종합병원",
        "rating": 2,
        "latitude": 37.4578,
        "longitude": 126.7100,
        "address": "인천광역시 남구 시립로 5",
        "contact": "+82-32-202-3456",
        "specialties": ["내과", "외과", "소아청소년과", "정형외과", "치과"],
        "hours": "00:00-24:00",
        "website": "http://incheon-city-hospital.kr",
        "weekend_availability": "Y"
    },
    {
        "id": "H000009",
        "name": "인천동부병원",
        "location": "인천",
        "location_code": "220000",
        "hospital_code": "H009",
        "phone": "032-303-4567",
        "type": "1차 병원",
        "rating": 1,
        "latitude": 37.4600,
        "longitude": 126.7150,
        "address": "인천광역시 동구 동부로 6",
        "contact": "+82-32-303-4567",
        "specialties": ["내과", "치과"],
        "hours": "09:00-18:00",
        "website": "http://incheon-east-hospital.kr",
        "weekend_availability": "N"
    },
    {
        "id": "H000010",
        "name": "대구대학병원",
        "location": "대구",
        "location_code": "240000",
        "hospital_code": "H010",
        "phone": "053-201-2345",
        "type": "대학병원",
        "rating": 3,
        "latitude": 35.8714,
        "longitude": 128.6014,
        "address": "대구광역시 중구 대학로 7",
        "contact": "+82-53-201-2345",
        "specialties": ["내과", "외과", "정신건강의학과", "신경외과", "소아과", "안과", "산부인과", "피부과"],
        "hours": "00:00-24:00",
        "website": "http://daegu-univ-hospital.kr",
        "weekend_availability": "Y"
    },
    {
        "id": "H000011",
        "name": "대구시립병원",
        "location": "대구",
        "location_code": "240000",
        "hospital_code": "H011",
        "phone": "053-202-3456",
        "type": "종합병원",
        "rating": 2,
        "latitude": 35.8720,
        "longitude": 128.6020,
        "address": "대구광역시 동구 시립로 8",
        "contact": "+82-53-202-3456",
        "specialties": ["내과", "외과", "소아청소년과", "정형외과", "치과"],
        "hours": "00:00-24:00",
        "website": "http://daegu-city-hospital.kr",
        "weekend_availability": "Y"
    },
    {
        "id": "H000012",
        "name": "대구동부병원",
        "location": "대구",
        "location_code": "240000",
        "hospital_code": "H012",
        "phone": "053-303-4567",
        "type": "1차 병원",
        "rating": 1,
        "latitude": 35.8750,
        "longitude": 128.6050,
        "address": "대구광역시 동구 동부로 9",
        "contact": "+82-53-303-4567",
        "specialties": ["내과", "치과"],
        "hours": "09:00-18:00",
        "website": "http://daegu-east-hospital.kr",
        "weekend_availability": "N"
    },
    {
        "id": "H000013",
        "name": "광주대학병원",
        "location": "광주",
        "location_code": "230000",
        "hospital_code": "H013",
        "phone": "062-201-2345",
        "type": "대학병원",
        "rating": 3,
        "latitude": 35.1595,
        "longitude": 126.8526,
        "address": "광주광역시 동구 대학로 10",
        "contact": "+82-62-201-2345",
        "specialties": ["내과", "외과", "정신건강의학과", "신경외과", "소아과", "안과", "산부인과", "피부과"],
        "hours": "00:00-24:00",
        "website": "http://gwangju-univ-hospital.kr",
        "weekend_availability": "Y"
    },
    {
        "id": "H000014",
        "name": "광주시립병원",
        "location": "광주",
        "location_code": "230000",
        "hospital_code": "H014",
        "phone": "062-202-3456",
        "type": "종합병원",
        "rating": 2,
        "latitude": 35.1600,
        "longitude": 126.8540,
        "address": "광주광역시 서구 시립로 11",
        "contact": "+82-62-202-3456",
        "specialties": ["내과", "외과", "소아청소년과", "정형외과", "치과"],
        "hours": "00:00-24:00",
        "website": "http://gwangju-city-hospital.kr",
        "weekend_availability": "Y"
    },
    {
        "id": "H000015",
        "name": "광주동부병원",
        "location": "광주",
        "location_code": "230000",
        "hospital_code": "H015",
        "phone": "062-303-4567",
        "type": "1차 병원",
        "rating": 1,
        "latitude": 35.1620,
        "longitude": 126.8560,
        "address": "광주광역시 남구 동부로 12",
        "contact": "+82-62-303-4567",
        "specialties": ["내과", "치과"],
        "hours": "09:00-18:00",
        "website": "http://gwangju-east-hospital.kr",
        "weekend_availability": "N"
    },
    {
        "id": "H000016",
        "name": "대전대학병원",
        "location": "대전",
        "location_code": "250000",
        "hospital_code": "H016",
        "phone": "042-201-2345",
        "type": "대학병원",
        "rating": 3,
        "latitude": 36.3504,
        "longitude": 127.3845,
        "address": "대전광역시 중구 대학로 13",
        "contact": "+82-42-201-2345",
        "specialties": ["내과", "외과", "정신건강의학과", "신경외과", "소아과", "안과", "산부인과", "피부과"],
        "hours": "00:00-24:00",
        "website": "http://daejeon-univ-hospital.kr",
        "weekend_availability": "Y"
    },
    {
        "id": "H000017",
        "name": "대전시립병원",
        "location": "대전",
        "location_code": "250000",
        "hospital_code": "H017",
        "phone": "042-202-3456",
        "type": "종합병원",
        "rating": 2,
        "latitude": 36.3510,
        "longitude": 127.3860,
        "address": "대전광역시 서구 시립로 14",
        "contact": "+82-42-202-3456",
        "specialties": ["내과", "외과", "소아청소년과", "정형외과", "치과"],
        "hours": "00:00-24:00",
        "website": "http://daejeon-city-hospital.kr",
        "weekend_availability": "Y"
    },
    {
        "id": "H000018",
        "name": "대전동부병원",
        "location": "대전",
        "location_code": "250000",
        "hospital_code": "H018",
        "phone": "042-303-4567",
        "type": "1차 병원",
        "rating": 1,
        "latitude": 36.3520,
        "longitude": 127.3880,
        "address": "대전광역시 동구 동부로 15",
        "contact": "+82-42-303-4567",
        "specialties": ["내과", "치과"],
        "hours": "09:00-18:00",
        "website": "http://daejeon-east-hospital.kr",
        "weekend_availability": "N"
    },
    {
        "id": "H000019",
        "name": "울산대학병원",
        "location": "울산",
        "location_code": "260000",
        "hospital_code": "H019",
        "phone": "052-201-2345",
        "type": "대학병원",
        "rating": 3,
        "latitude": 35.5384,
        "longitude": 129.3114,
        "address": "울산광역시 중구 대학로 16",
        "contact": "+82-52-201-2345",
        "specialties": ["내과", "외과", "정신건강의학과", "신경외과", "소아과", "안과", "산부인과", "피부과"],
        "hours": "00:00-24:00",
        "website": "http://ulsan-univ-hospital.kr",
        "weekend_availability": "Y"
    },
    {
        "id": "H000020",
        "name": "울산시립병원",
        "location": "울산",
        "location_code": "260000",
        "hospital_code": "H020",
        "phone": "052-202-3456",
        "type": "종합병원",
        "rating": 2,
        "latitude": 35.5390,
        "longitude": 129.3120,
        "address": "울산광역시 남구 시립로 17",
        "contact": "+82-52-202-3456",
        "specialties": ["내과", "외과", "소아청소년과", "정형외과", "치과"],
        "hours": "00:00-24:00",
        "website": "http://ulsan-city-hospital.kr",
        "weekend_availability": "Y"
    },
    {
        "id": "H000021",
        "name": "울산동부병원",
        "location": "울산",
        "location_code": "260000",
        "hospital_code": "H021",
        "phone": "052-303-4567",
        "type": "1차 병원",
        "rating": 1,
        "latitude": 35.5400,
        "longitude": 129.3130,
        "address": "울산광역시 동구 동부로 18",
        "contact": "+82-52-303-4567",
        "specialties": ["내과", "치과"],
        "hours": "09:00-18:00",
        "website": "http://ulsan-east-hospital.kr",
        "weekend_availability": "N"
    },
    {
        "id": "H000022",
        "name": "수원대학병원",
        "location": "수원",
        "location_code": "270000",
        "hospital_code": "H022",
        "phone": "031-201-2345",
        "type": "대학병원",
        "rating": 3,
        "latitude": 37.2635,
        "longitude": 127.0286,
        "address": "수원시 장안구 대학로 19",
        "contact": "+82-31-201-2345",
        "specialties": ["내과", "외과", "정신건강의학과", "신경외과", "소아과", "안과", "산부인과", "피부과"],
        "hours": "00:00-24:00",
        "website": "http://suwon-univ-hospital.kr",
        "weekend_availability": "Y"
    },
    {
        "id": "H000023",
        "name": "수원시립병원",
        "location": "수원",
        "location_code": "270000",
        "hospital_code": "H023",
        "phone": "031-202-3456",
        "type": "종합병원",
        "rating": 2,
        "latitude": 37.2640,
        "longitude": 127.0290,
        "address": "수원시 팔달구 시립로 20",
        "contact": "+82-31-202-3456",
        "specialties": ["내과", "외과", "소아청소년과", "정형외과", "치과"],
        "hours": "00:00-24:00",
        "website": "http://suwon-city-hospital.kr",
        "weekend_availability": "Y"
    },
    {
        "id": "H000024",
        "name": "수원동부병원",
        "location": "수원",
        "location_code": "270000",
        "hospital_code": "H024",
        "phone": "031-303-4567",
        "type": "1차 병원",
        "rating": 1,
        "latitude": 37.2650,
        "longitude": 127.0300,
        "address": "수원시 권선구 동부로 21",
        "contact": "+82-31-303-4567",
        "specialties": ["내과", "치과"],
        "hours": "09:00-18:00",
        "website": "http://suwon-east-hospital.kr",
        "weekend_availability": "N"
    },
    {
        "id": "H000025",
        "name": "창원대학병원",
        "location": "창원",
        "location_code": "280000",
        "hospital_code": "H025",
        "phone": "055-201-2345",
        "type": "대학병원",
        "rating": 3,
        "latitude": 35.2270,
        "longitude": 128.6812,
        "address": "창원시 성산구 대학로 22",
        "contact": "+82-55-201-2345",
        "specialties": ["내과", "외과", "정신건강의학과", "신경외과", "소아과", "안과", "산부인과", "피부과"],
        "hours": "00:00-24:00",
        "website": "http://changwon-univ-hospital.kr",
        "weekend_availability": "Y"
    },
    {
        "id": "H000026",
        "name": "창원시립병원",
        "location": "창원",
        "location_code": "280000",
        "hospital_code": "H026",
        "phone": "055-202-3456",
        "type": "종합병원",
        "rating": 2,
        "latitude": 35.2280,
        "longitude": 128.6820,
        "address": "창원시 의창구 시립로 23",
        "contact": "+82-55-202-3456",
        "specialties": ["내과", "외과", "소아청소년과", "정형외과", "치과"],
        "hours": "00:00-24:00",
        "website": "http://changwon-city-hospital.kr",
        "weekend_availability": "Y"
    },
    {
        "id": "H000027",
        "name": "창원동부병원",
        "location": "창원",
        "location_code": "280000",
        "hospital_code": "H027",
        "phone": "055-303-4567",
        "type": "1차 병원",
        "rating": 1,
        "latitude": 35.2290,
        "longitude": 128.6830,
        "address": "창원시 마산합포구 동부로 24",
        "contact": "+82-55-303-4567",
        "specialties": ["내과", "치과"],
        "hours": "09:00-18:00",
        "website": "http://changwon-east-hospital.kr",
        "weekend_availability": "N"
    }
]
